name,amenity_type,LatLng,lat,lon
ADMIRALTY PRIMARY SCHOOL,education,"1.4426347903311,103.800040119743",1.4426347903311,103.800040119743
ADMIRALTY SECONDARY SCHOOL,education,"1.44589068910993,103.802398196596",1.44589068910993,103.802398196596
AHMAD IBRAHIM PRIMARY SCHOOL,education,"1.43315271543517,103.832942401086",1.43315271543517,103.832942401086
AHMAD IBRAHIM SECONDARY SCHOOL,education,"1.43605975368804,103.829718690077",1.43605975368804,103.829718690077
AI TONG SCHOOL,education,"1.3605834338904,103.833020333986",1.3605834338904,103.833020333986
ALEXANDRA PRIMARY SCHOOL,education,"1.29133439161334,103.824424680531",1.29133439161334,103.824424680531
ANCHOR GREEN PRIMARY SCHOOL,education,"1.39036998654612,103.887165375933",1.39036998654612,103.887165375933
ANDERSON PRIMARY SCHOOL,education,"1.38419941907925,103.841411716006",1.38419941907925,103.841411716006
ANDERSON SECONDARY SCHOOL,education,"1.37434001701177,103.851554107068",1.37434001701177,103.851554107068
ANDERSON SERANGOON JUNIOR COLLEGE,education,"1.37839670972543,103.845885968342",1.37839670972543,103.845885968342
ANG MO KIO PRIMARY SCHOOL,education,"1.36932176584608,103.839630858752",1.36932176584608,103.839630858752
ANG MO KIO SECONDARY SCHOOL,education,"1.36733710171069,103.842154973672",1.36733710171069,103.842154973672
ANGLICAN HIGH SCHOOL,education,"1.33058126205128,103.941082513081",1.33058126205128,103.941082513081
ANGLO-CHINESE JUNIOR COLLEGE,education,"1.30304255193392,103.785358436408",1.30304255193392,103.785358436408
ANGLO-CHINESE SCHOOL (BARKER ROAD),education,"1.31961649151328,103.835772689988",1.31961649151328,103.835772689988
ANGLO-CHINESE SCHOOL (INDEPENDENT),education,"1.30370409257783,103.780363417671",1.30370409257783,103.780363417671
ANGLO-CHINESE SCHOOL (JUNIOR),education,"1.30935041274966,103.840950265464",1.30935041274966,103.840950265464
ANGLO-CHINESE SCHOOL (PRIMARY),education,"1.31837054523521,103.835609732354",1.31837054523521,103.835609732354
ANGSANA PRIMARY SCHOOL,education,"1.34855287558648,103.951808105552",1.34855287558648,103.951808105552
ASSUMPTION ENGLISH SCHOOL,education,"1.36838160662857,103.766687526556",1.36838160662857,103.766687526556
ASSUMPTION PATHWAY SCHOOL,education,"1.3696707043227,103.765959130581",1.3696707043227,103.765959130581
BARTLEY SECONDARY SCHOOL,education,"1.33995415587811,103.882806211705",1.33995415587811,103.882806211705
BEACON PRIMARY SCHOOL,education,"1.38394936211823,103.773632022975",1.38394936211823,103.773632022975
BEATTY SECONDARY SCHOOL,education,"1.341790284928,103.852280842345",1.341790284928,103.852280842345
BEDOK GREEN PRIMARY SCHOOL,education,"1.32344593287992,103.937878976352",1.32344593287992,103.937878976352
BEDOK GREEN SECONDARY SCHOOL,education,"1.33451947288431,103.935028383346",1.33451947288431,103.935028383346
BEDOK SOUTH SECONDARY SCHOOL,education,"1.32513655159184,103.950989139261",1.32513655159184,103.950989139261
BEDOK VIEW SECONDARY SCHOOL,education,"1.32415704029686,103.943776245024",1.32415704029686,103.943776245024
BENDEMEER PRIMARY SCHOOL,education,"1.32181250780475,103.865404167629",1.32181250780475,103.865404167629
BENDEMEER SECONDARY SCHOOL,education,"1.32425869967174,103.860634248131",1.32425869967174,103.860634248131
BLANGAH RISE PRIMARY SCHOOL,education,"1.27612047924037,103.808628535239",1.27612047924037,103.808628535239
BOON LAY GARDEN PRIMARY SCHOOL,education,"1.34284013791617,103.712858381937",1.34284013791617,103.712858381937
BOON LAY SECONDARY SCHOOL,education,"1.34272216334333,103.701891453912",1.34272216334333,103.701891453912
BOWEN SECONDARY SCHOOL,education,"1.37035994436209,103.877659577677",1.37035994436209,103.877659577677
BROADRICK SECONDARY SCHOOL,education,"1.30705061123433,103.886917922608",1.30705061123433,103.886917922608
BUKIT BATOK SECONDARY SCHOOL,education,"1.34849111079052,103.74087370482",1.34849111079052,103.74087370482
BUKIT MERAH SECONDARY SCHOOL,education,"1.28569283064288,103.813438929393",1.28569283064288,103.813438929393
BUKIT PANJANG GOVT. HIGH SCHOOL,education,"1.38224243360043,103.738361221869",1.38224243360043,103.738361221869
BUKIT PANJANG PRIMARY SCHOOL,education,"1.37350089986584,103.769417337654",1.37350089986584,103.769417337654
BUKIT TIMAH PRIMARY SCHOOL,education,"1.3377498622588,103.766855344779",1.3377498622588,103.766855344779
BUKIT VIEW PRIMARY SCHOOL,education,"1.34586054788695,103.75366641455",1.34586054788695,103.75366641455
BUKIT VIEW SECONDARY SCHOOL,education,"1.3457330554294,103.752226593984",1.3457330554294,103.752226593984
CANBERRA PRIMARY SCHOOL,education,"1.45125024371543,103.815858858929",1.45125024371543,103.815858858929
CANBERRA SECONDARY SCHOOL,education,"1.45319086315972,103.814203583818",1.45319086315972,103.814203583818
CANOSSA CATHOLIC PRIMARY SCHOOL,education,"1.32664424544839,103.882227964852",1.32664424544839,103.882227964852
CANTONMENT PRIMARY SCHOOL,education,"1.27547252623201,103.839962631748",1.27547252623201,103.839962631748
CASUARINA PRIMARY SCHOOL,education,"1.37246063927999,103.957020286115",1.37246063927999,103.957020286115
CATHOLIC HIGH SCHOOL,education,"1.3547230747166,103.844874676599",1.3547230747166,103.844874676599
CATHOLIC JUNIOR COLLEGE,education,"1.32455605783219,103.835028842353",1.32455605783219,103.835028842353
CEDAR GIRLS' SECONDARY SCHOOL,education,"1.33375800216334,103.873933064886",1.33375800216334,103.873933064886
CEDAR PRIMARY SCHOOL,education,"1.33566084356265,103.87562006259",1.33566084356265,103.87562006259
CHANGKAT CHANGI SECONDARY SCHOOL,education,"1.33950630072876,103.953245525564",1.33950630072876,103.953245525564
CHANGKAT PRIMARY SCHOOL,education,"1.34023163951633,103.952080114035",1.34023163951633,103.952080114035
CHIJ (KATONG) PRIMARY,education,"1.30648535277087,103.911105620496",1.30648535277087,103.911105620496
CHIJ (KELLOCK),education,"1.275022722964,103.828157564896",1.275022722964,103.828157564896
CHIJ KATONG CONVENT,education,"1.30644268034894,103.917144350028",1.30644268034894,103.917144350028
CHIJ OUR LADY OF GOOD COUNSEL,education,"1.35742952269615,103.864009397373",1.35742952269615,103.864009397373
CHIJ OUR LADY OF THE NATIVITY,education,"1.37330297140128,103.897575728303",1.37330297140128,103.897575728303
CHIJ OUR LADY QUEEN OF PEACE,education,"1.366603668561,103.767412204602",1.366603668561,103.767412204602
CHIJ PRIMARY (TOA PAYOH),education,"1.33275264711587,103.841847263786",1.33275264711587,103.841847263786
CHIJ SECONDARY (TOA PAYOH),education,"1.33246079948303,103.843271625083",1.33246079948303,103.843271625083
CHIJ ST. JOSEPH'S CONVENT,education,"1.39175222260369,103.902464991543",1.39175222260369,103.902464991543
CHIJ ST. NICHOLAS GIRLS' SCHOOL,education,"1.37347687878916,103.834253269436",1.37347687878916,103.834253269436
CHIJ ST. THERESA'S CONVENT,education,"1.27535177510054,103.822440701642",1.27535177510054,103.822440701642
CHONGFU SCHOOL,education,"1.43839562897006,103.839309173817",1.43839562897006,103.839309173817
CHONGZHENG PRIMARY SCHOOL,education,"1.35061130568554,103.951317297552",1.35061130568554,103.951317297552
CHRIST CHURCH SECONDARY SCHOOL,education,"1.42656780901455,103.793451105242",1.42656780901455,103.793451105242
CHUA CHU KANG PRIMARY SCHOOL,education,"1.37775890093367,103.741832917421",1.37775890093367,103.741832917421
CHUA CHU KANG SECONDARY SCHOOL,education,"1.38319029263484,103.751878290333",1.38319029263484,103.751878290333
CHUNG CHENG HIGH SCHOOL (MAIN),education,"1.30509154753048,103.891653229373",1.30509154753048,103.891653229373
CHUNG CHENG HIGH SCHOOL (YISHUN),education,"1.41922603586175,103.837390782849",1.41922603586175,103.837390782849
CLEMENTI PRIMARY SCHOOL,education,"1.31506321827875,103.763144493687",1.31506321827875,103.763144493687
CLEMENTI TOWN SECONDARY SCHOOL,education,"1.31553912945073,103.762020598524",1.31553912945073,103.762020598524
COMMONWEALTH SECONDARY SCHOOL,education,"1.31920395934801,103.745637393049",1.31920395934801,103.745637393049
COMPASSVALE PRIMARY SCHOOL,education,"1.28859134761324,103.847424110235",1.28859134761324,103.847424110235
COMPASSVALE SECONDARY SCHOOL,education,"1.39614083952009,103.899847164494",1.39614083952009,103.899847164494
CONCORD PRIMARY SCHOOL,education,"1.38026516111464,103.736554295636",1.38026516111464,103.736554295636
CORPORATION PRIMARY SCHOOL,education,"1.35148548772662,103.707578404944",1.35148548772662,103.707578404944
CRESCENT GIRLS' SCHOOL,education,"1.29331947077104,103.817544461755",1.29331947077104,103.817544461755
CREST SECONDARY SCHOOL,education,"1.3431198045076,103.742628105304",1.3431198045076,103.742628105304
DAMAI PRIMARY SCHOOL,education,"1.33524602829747,103.921286435321",1.33524602829747,103.921286435321
DAMAI SECONDARY SCHOOL,education,"1.33692798510393,103.927091653438",1.33692798510393,103.927091653438
DAZHONG PRIMARY SCHOOL,education,"1.3591797447277,103.74847210784",1.3591797447277,103.74847210784
DE LA SALLE SCHOOL,education,"1.3947078296399,103.743201812831",1.3947078296399,103.743201812831
DEYI SECONDARY SCHOOL,education,"1.36599702567717,103.852545772422",1.36599702567717,103.852545772422
DUNEARN SECONDARY SCHOOL,education,"1.36357900792871,103.74472109107",1.36357900792871,103.74472109107
DUNMAN HIGH SCHOOL,education,"1.29996216014962,103.88294155989",1.29996216014962,103.88294155989
DUNMAN SECONDARY SCHOOL,education,"1.36065258337022,103.956213906966",1.36065258337022,103.956213906966
EAST SPRING PRIMARY SCHOOL,education,"1.35268400746357,103.961676849165",1.35268400746357,103.961676849165
EAST SPRING SECONDARY SCHOOL,education,"1.35622508992581,103.960640700298",1.35622508992581,103.960640700298
EDGEFIELD PRIMARY SCHOOL,education,"1.40009139510996,103.907847599114",1.40009139510996,103.907847599114
EDGEFIELD SECONDARY SCHOOL,education,"1.40059309981824,103.902687385465",1.40059309981824,103.902687385465
ELIAS PARK PRIMARY SCHOOL,education,"1.37505696315817,103.945289416873",1.37505696315817,103.945289416873
ENDEAVOUR PRIMARY SCHOOL,education,"1.45388170417263,103.817174701639",1.45388170417263,103.817174701639
EUNOIA JUNIOR COLLEGE,education,"1.36213757183547,103.841286169122",1.36213757183547,103.841286169122
EVERGREEN PRIMARY SCHOOL,education,"1.44414835451585,103.794545295922",1.44414835451585,103.794545295922
EVERGREEN SECONDARY SCHOOL,education,"1.44149131273737,103.794137756171",1.44149131273737,103.794137756171
FAIRFIELD METHODIST SCHOOL (PRIMARY),education,"1.30100441916733,103.785455606827",1.30100441916733,103.785455606827
FAIRFIELD METHODIST SCHOOL (SECONDARY),education,"1.30163374395823,103.784099647149",1.30163374395823,103.784099647149
FARRER PARK PRIMARY SCHOOL,education,"1.31236867681371,103.850766402965",1.31236867681371,103.850766402965
FENGSHAN PRIMARY SCHOOL,education,"1.32980598760785,103.931710293058",1.32980598760785,103.931710293058
FERN GREEN PRIMARY SCHOOL,education,"1.39726966050479,103.880330305684",1.39726966050479,103.880330305684
FERNVALE PRIMARY SCHOOL,education,"1.39030227963797,103.874445458032",1.39030227963797,103.874445458032
FIRST TOA PAYOH PRIMARY SCHOOL,education,"1.34032299499938,103.855529906182",1.34032299499938,103.855529906182
FRONTIER PRIMARY SCHOOL,education,"1.33641298743234,103.69970173931",1.33641298743234,103.69970173931
FUCHUN PRIMARY SCHOOL,education,"1.43047990810126,103.778192944298",1.43047990810126,103.778192944298
FUHUA PRIMARY SCHOOL,education,"1.33659726465816,103.736089481883",1.33659726465816,103.736089481883
FUHUA SECONDARY SCHOOL,education,"1.34701408913756,103.72652089832",1.34701408913756,103.72652089832
GAN ENG SENG PRIMARY SCHOOL,education,"1.28559516494962,103.815547410064",1.28559516494962,103.815547410064
GAN ENG SENG SCHOOL,education,"1.28907114485773,103.823733673089",1.28907114485773,103.823733673089
GEYLANG METHODIST SCHOOL (PRIMARY),education,"1.31814416827374,103.883628501601",1.31814416827374,103.883628501601
GEYLANG METHODIST SCHOOL (SECONDARY),education,"1.31764900474601,103.882661129303",1.31764900474601,103.882661129303
GONGSHANG PRIMARY SCHOOL,education,"1.35711606790292,103.949144797277",1.35711606790292,103.949144797277
GREENDALE PRIMARY SCHOOL,education,"1.39648195114256,103.91233462071",1.39648195114256,103.91233462071
GREENDALE SECONDARY SCHOOL,education,"1.39696019936894,103.91170014084",1.39696019936894,103.91170014084
GREENRIDGE PRIMARY SCHOOL,education,"1.3858892193692,103.767794469258",1.3858892193692,103.767794469258
GREENRIDGE SECONDARY SCHOOL,education,"1.38186433722811,103.773828466913",1.38186433722811,103.773828466913
GREENWOOD PRIMARY SCHOOL,education,"1.43989958331782,103.804725587384",1.43989958331782,103.804725587384
GUANGYANG SECONDARY SCHOOL,education,"1.34440856042912,103.850208933626",1.34440856042912,103.850208933626
HAI SING CATHOLIC SCHOOL,education,"1.3743371707478,103.954544548905",1.3743371707478,103.954544548905
HAIG GIRLS' SCHOOL,education,"1.31194344271383,103.902902557195",1.31194344271383,103.902902557195
HENRY PARK PRIMARY SCHOOL,education,"1.31667646178347,103.784296227747",1.31667646178347,103.784296227747
HILLGROVE SECONDARY SCHOOL,education,"1.35273576615912,103.752986488399",1.35273576615912,103.752986488399
HOLY INNOCENTS' HIGH SCHOOL,education,"1.37154508822261,103.896398814264",1.37154508822261,103.896398814264
HOLY INNOCENTS' PRIMARY SCHOOL,education,"1.36693830877349,103.894114899795",1.36693830877349,103.894114899795
HONG WEN SCHOOL,education,"1.32175999964553,103.857628468881",1.32175999964553,103.857628468881
HORIZON PRIMARY SCHOOL,education,"1.399550034492,103.913404855665",1.399550034492,103.913404855665
HOUGANG PRIMARY SCHOOL,education,"1.37571530699875,103.879472337592",1.37571530699875,103.879472337592
HOUGANG SECONDARY SCHOOL,education,"1.37764019332164,103.882533963338",1.37764019332164,103.882533963338
HUA YI SECONDARY SCHOOL,education,"1.35234365488339,103.721832320169",1.35234365488339,103.721832320169
HUAMIN PRIMARY SCHOOL,education,"1.42697284512936,103.844240226564",1.42697284512936,103.844240226564
HWA CHONG INSTITUTION,education,"1.3263580622144,103.803290365022",1.3263580622144,103.803290365022
INNOVA PRIMARY SCHOOL,education,"1.42896700684852,103.790607539185",1.42896700684852,103.790607539185
JIEMIN PRIMARY SCHOOL,education,"1.42768847665227,103.830425490093",1.42768847665227,103.830425490093
JING SHAN PRIMARY SCHOOL,education,"1.36442474404862,103.850864037677",1.36442474404862,103.850864037677
JUNYUAN PRIMARY SCHOOL,education,"1.34787074766746,103.939221709073",1.34787074766746,103.939221709073
JUNYUAN SECONDARY SCHOOL,education,"1.35361315263537,103.933886165824",1.35361315263537,103.933886165824
JURONG PIONEER JUNIOR COLLEGE,education,"1.38437406410733,103.75437461519",1.38437406410733,103.75437461519
JURONG PRIMARY SCHOOL,education,"1.34843859698946,103.733156566858",1.34843859698946,103.733156566858
JURONG SECONDARY SCHOOL,education,"1.33002032220942,103.723952961648",1.33002032220942,103.723952961648
JURONG WEST PRIMARY SCHOOL,education,"1.33917519796104,103.698803732244",1.33917519796104,103.698803732244
JURONG WEST SECONDARY SCHOOL,education,"1.33525634688323,103.702098904443",1.33525634688323,103.702098904443
JURONGVILLE SECONDARY SCHOOL,education,"1.35128862770284,103.728907710089",1.35128862770284,103.728907710089
JUYING SECONDARY SCHOOL,education,"1.3387227734133,103.687310264575",1.3387227734133,103.687310264575
KEMING PRIMARY SCHOOL,education,"1.34552849960874,103.756449399351",1.34552849960874,103.756449399351
KENT RIDGE SECONDARY SCHOOL,education,"1.30122773426098,103.764889617566",1.30122773426098,103.764889617566
KHENG CHENG SCHOOL,education,"1.3373381935639,103.847148501824",1.3373381935639,103.847148501824
KONG HWA SCHOOL,education,"1.31099674009193,103.888352029067",1.31099674009193,103.888352029067
KRANJI PRIMARY SCHOOL,education,"1.39356050497104,103.747362720939",1.39356050497104,103.747362720939
KRANJI SECONDARY SCHOOL,education,"1.39005109871311,103.741190664845",1.39005109871311,103.741190664845
KUO CHUAN PRESBYTERIAN PRIMARY SCHOOL,education,"1.34939813669536,103.855018233311",1.34939813669536,103.855018233311
KUO CHUAN PRESBYTERIAN SECONDARY SCHOOL,education,"1.35017129930314,103.854983746416",1.35017129930314,103.854983746416
LAKESIDE PRIMARY SCHOOL,education,"1.33820397704287,103.718089546664",1.33820397704287,103.718089546664
LIANHUA PRIMARY SCHOOL,education,"1.35424191127295,103.754165828711",1.35424191127295,103.754165828711
LOYANG VIEW SECONDARY SCHOOL,education,"1.36658417167238,103.956944585725",1.36658417167238,103.956944585725
MAHA BODHI SCHOOL,education,"1.32858023873554,103.901306904157",1.32858023873554,103.901306904157
MANJUSRI SECONDARY SCHOOL,education,"1.32747123084846,103.901719963831",1.32747123084846,103.901719963831
MARIS STELLA HIGH SCHOOL,education,"1.34139822375509,103.87776938227",1.34139822375509,103.87776938227
MARSILING PRIMARY SCHOOL,education,"1.43383904037059,103.773643013846",1.43383904037059,103.773643013846
MARSILING SECONDARY SCHOOL,education,"1.43664424769955,103.776008090454",1.43664424769955,103.776008090454
MARYMOUNT CONVENT SCHOOL,education,"1.34043840661368,103.839811736775",1.34043840661368,103.839811736775
MAYFLOWER PRIMARY SCHOOL,education,"1.37637683547682,103.843252803742",1.37637683547682,103.843252803742
MAYFLOWER SECONDARY SCHOOL,education,"1.36827266209722,103.835360726863",1.36827266209722,103.835360726863
MEE TOH SCHOOL,education,"1.39485356081865,103.90857257736",1.39485356081865,103.90857257736
MERIDIAN PRIMARY SCHOOL,education,"1.37550677054835,103.934953276155",1.37550677054835,103.934953276155
MERIDIAN SECONDARY SCHOOL,education,"1.3672468492013,103.948972483629",1.3672468492013,103.948972483629
METHODIST GIRLS' SCHOOL (PRIMARY),education,"1.33266213599636,103.783382114018",1.33266213599636,103.783382114018
METHODIST GIRLS' SCHOOL (SECONDARY),education,"1.33266213599636,103.783382114018",1.33266213599636,103.783382114018
MILLENNIA INSTITUTE,education,"1.35031939200985,103.741593577684",1.35031939200985,103.741593577684
MONTFORT JUNIOR SCHOOL,education,"1.37362445234082,103.889741457901",1.37362445234082,103.889741457901
MONTFORT SECONDARY SCHOOL,education,"1.37396131656912,103.888928372577",1.37396131656912,103.888928372577
NAN CHIAU HIGH SCHOOL,education,"1.38879582498399,103.890004423764",1.38879582498399,103.890004423764
NAN CHIAU PRIMARY SCHOOL,education,"1.39221149906592,103.891180928186",1.39221149906592,103.891180928186
NAN HUA HIGH SCHOOL,education,"1.30809529518605,103.768561446725",1.30809529518605,103.768561446725
NAN HUA PRIMARY SCHOOL,education,"1.31920159956387,103.761095065761",1.31920159956387,103.761095065761
NANYANG GIRLS' HIGH SCHOOL,education,"1.33058326666479,103.802420979943",1.33058326666479,103.802420979943
NANYANG JUNIOR COLLEGE,education,"1.35028314949236,103.866498721912",1.35028314949236,103.866498721912
NANYANG PRIMARY SCHOOL,education,"1.32107094241153,103.807681852799",1.32107094241153,103.807681852799
NATIONAL JUNIOR COLLEGE,education,"1.33029291072172,103.804110905425",1.33029291072172,103.804110905425
NAVAL BASE PRIMARY SCHOOL,education,"1.41590195697649,103.839100590207",1.41590195697649,103.839100590207
NAVAL BASE SECONDARY SCHOOL,education,"1.41937881620441,103.831050390247",1.41937881620441,103.831050390247
NEW TOWN PRIMARY SCHOOL,education,"1.29981138884057,103.799964819895",1.29981138884057,103.799964819895
NEW TOWN SECONDARY SCHOOL,education,"1.30977590011357,103.77318863421",1.30977590011357,103.77318863421
NGEE ANN PRIMARY SCHOOL,education,"1.30553224180437,103.917570005713",1.30553224180437,103.917570005713
NGEE ANN SECONDARY SCHOOL,education,"1.35447525755806,103.956747262496",1.35447525755806,103.956747262496
NORTH SPRING PRIMARY SCHOOL,education,"1.38706146494859,103.903202683028",1.38706146494859,103.903202683028
NORTH VIEW PRIMARY SCHOOL,education,"1.42745159462566,103.848378442893",1.42745159462566,103.848378442893
NORTH VISTA PRIMARY SCHOOL,education,"1.38255066171151,103.89626457548",1.38255066171151,103.89626457548
NORTH VISTA SECONDARY SCHOOL,education,"1.381131285358,103.899188813886",1.381131285358,103.899188813886
NORTHBROOKS SECONDARY SCHOOL,education,"1.42081285020652,103.845147332528",1.42081285020652,103.845147332528
NORTHLAND PRIMARY SCHOOL,education,"1.42130404159807,103.840792923345",1.42130404159807,103.840792923345
NORTHLAND SECONDARY SCHOOL,education,"1.43580183362637,103.840104687784",1.43580183362637,103.840104687784
NORTHLIGHT SCHOOL,education,"1.3191002158167,103.85575955353",1.3191002158167,103.85575955353
NORTHOAKS PRIMARY SCHOOL,education,"1.45732867302094,103.814075611175",1.45732867302094,103.814075611175
NORTHSHORE PRIMARY SCHOOL,education,"1.41842322079348,103.905147201163",1.41842322079348,103.905147201163
NUS HIGH SCHOOL OF MATHEMATICS AND SCIENCE,education,"1.30656448055686,103.769365156929",1.30656448055686,103.769365156929
OASIS PRIMARY SCHOOL,education,"1.40507184758584,103.911200193835",1.40507184758584,103.911200193835
OPERA ESTATE PRIMARY SCHOOL,education,"1.31996876377748,103.923752668632",1.31996876377748,103.923752668632
ORCHID PARK SECONDARY SCHOOL,education,"1.41532032779634,103.837859241343",1.41532032779634,103.837859241343
OUTRAM SECONDARY SCHOOL,education,"1.28651357464735,103.837127264403",1.28651357464735,103.837127264403
PALM VIEW PRIMARY SCHOOL,education,"1.38376923022123,103.891354675017",1.38376923022123,103.891354675017
PARK VIEW PRIMARY SCHOOL,education,"1.37801687647812,103.9392021807",1.37801687647812,103.9392021807
PASIR RIS CREST SECONDARY SCHOOL,education,"1.37284060102246,103.959728202919",1.37284060102246,103.959728202919
PASIR RIS PRIMARY SCHOOL,education,"1.37245132722087,103.962922699031",1.37245132722087,103.962922699031
PASIR RIS SECONDARY SCHOOL,education,"1.35422732653396,103.948962626204",1.35422732653396,103.948962626204
PAYA LEBAR METHODIST GIRLS' SCHOOL (PRIMARY),education,"1.3502545600894,103.884846876112",1.3502545600894,103.884846876112
PAYA LEBAR METHODIST GIRLS' SCHOOL (SECONDARY),education,"1.35096755912522,103.885120050588",1.35096755912522,103.885120050588
PEI CHUN PUBLIC SCHOOL,education,"1.33677864390672,103.855341310212",1.33677864390672,103.855341310212
PEI HWA PRESBYTERIAN PRIMARY SCHOOL,education,"1.33807302121151,103.776250903095",1.33807302121151,103.776250903095
PEI HWA SECONDARY SCHOOL,education,"1.39037504993234,103.878461745339",1.39037504993234,103.878461745339
PEI TONG PRIMARY SCHOOL,education,"1.31666529308968,103.767438999533",1.31666529308968,103.767438999533
PEICAI SECONDARY SCHOOL,education,"1.35951583222214,103.870010749055",1.35951583222214,103.870010749055
PEIRCE SECONDARY SCHOOL,education,"1.36665944653812,103.83021606804",1.36665944653812,103.83021606804
PEIYING PRIMARY SCHOOL,education,"1.41741627551251,103.830143209875",1.41741627551251,103.830143209875
PIONEER PRIMARY SCHOOL,education,"1.34883617453427,103.695003812477",1.34883617453427,103.695003812477
POI CHING SCHOOL,education,"1.35765121877679,103.935246486174",1.35765121877679,103.935246486174
PRESBYTERIAN HIGH SCHOOL,education,"1.38175437421949,103.842382968794",1.38175437421949,103.842382968794
PRINCESS ELIZABETH PRIMARY SCHOOL,education,"1.34919098857585,103.740719208011",1.34919098857585,103.740719208011
PUNGGOL COVE PRIMARY SCHOOL,education,"1.41158455562454,103.89890448429",1.41158455562454,103.89890448429
PUNGGOL GREEN PRIMARY SCHOOL,education,"1.40172590450528,103.898794262307",1.40172590450528,103.898794262307
PUNGGOL PRIMARY SCHOOL,education,"1.37820062547641,103.894667159512",1.37820062547641,103.894667159512
PUNGGOL SECONDARY SCHOOL,education,"1.40205738421399,103.909213706482",1.40205738421399,103.909213706482
PUNGGOL VIEW PRIMARY SCHOOL,education,"1.40505250226058,103.905299026568",1.40505250226058,103.905299026568
QIFA PRIMARY SCHOOL,education,"1.3132658326807,103.756629101811",1.3132658326807,103.756629101811
QIHUA PRIMARY SCHOOL,education,"1.44203596557592,103.788339762066",1.44203596557592,103.788339762066
QUEENSTOWN PRIMARY SCHOOL,education,"1.29552905587752,103.807648475656",1.29552905587752,103.807648475656
QUEENSTOWN SECONDARY SCHOOL,education,"1.29352126774652,103.813190980055",1.29352126774652,103.813190980055
QUEENSWAY SECONDARY SCHOOL,education,"1.30022271592188,103.802207291625",1.30022271592188,103.802207291625
RADIN MAS PRIMARY SCHOOL,education,"1.27489701529771,103.824115781658",1.27489701529771,103.824115781658
RAFFLES GIRLS' PRIMARY SCHOOL,education,"1.33004178068277,103.806397828938",1.33004178068277,103.806397828938
RAFFLES GIRLS' SCHOOL (SECONDARY),education,"1.34217479932295,103.84313404727",1.34217479932295,103.84313404727
RAFFLES INSTITUTION,education,"1.34618775847486,103.845875110532",1.34618775847486,103.845875110532
RED SWASTIKA SCHOOL,education,"1.33405659580859,103.934317528484",1.33405659580859,103.934317528484
REGENT SECONDARY SCHOOL,education,"1.39327908335682,103.751034411529",1.39327908335682,103.751034411529
RIVER VALLEY HIGH SCHOOL,education,"1.34459584223718,103.708190688947",1.34459584223718,103.708190688947
RIVER VALLEY PRIMARY SCHOOL,education,"1.29418347842837,103.836018941571",1.29418347842837,103.836018941571
RIVERSIDE PRIMARY SCHOOL,education,"1.44700426493785,103.801889031334",1.44700426493785,103.801889031334
RIVERSIDE SECONDARY SCHOOL,education,"1.44110157139127,103.78830823641",1.44110157139127,103.78830823641
RIVERVALE PRIMARY SCHOOL,education,"1.39333506298213,103.904545253288",1.39333506298213,103.904545253288
ROSYTH SCHOOL,education,"1.3728583654058,103.87477170399",1.3728583654058,103.87477170399
RULANG PRIMARY SCHOOL,education,"1.34673868889096,103.718457955487",1.34673868889096,103.718457955487
"SCHOOL OF SCIENCE AND TECHNOLOGY, SINGAPORE",education,"1.31292810600277,103.774011529322",1.31292810600277,103.774011529322
"SCHOOL OF THE ARTS, SINGAPORE",education,"1.29936480411316,103.848687419363",1.29936480411316,103.848687419363
SEMBAWANG PRIMARY SCHOOL,education,"1.4457453096024,103.821152676215",1.4457453096024,103.821152676215
SEMBAWANG SECONDARY SCHOOL,education,"1.44531502131387,103.816843258118",1.44531502131387,103.816843258118
SENG KANG PRIMARY SCHOOL,education,"1.38925044778224,103.899527879229",1.38925044778224,103.899527879229
SENG KANG SECONDARY SCHOOL,education,"1.38659683143747,103.898365036709",1.38659683143747,103.898365036709
SENGKANG GREEN PRIMARY SCHOOL,education,"1.3925400930811,103.874984869551",1.3925400930811,103.874984869551
SERANGOON GARDEN SECONDARY SCHOOL,education,"1.36932570490947,103.869270301476",1.36932570490947,103.869270301476
SERANGOON SECONDARY SCHOOL,education,"1.37465538827443,103.902138740699",1.37465538827443,103.902138740699
SHUQUN PRIMARY SCHOOL,education,"1.34686967259067,103.721559387203",1.34686967259067,103.721559387203
SI LING PRIMARY SCHOOL,education,"1.43240935732525,103.786035065192",1.43240935732525,103.786035065192
SINGAPORE CHINESE GIRLS' PRIMARY SCHOOL,education,"1.3206340835184,103.828164966953",1.3206340835184,103.828164966953
SINGAPORE CHINESE GIRLS' SCHOOL,education,"1.3206340835184,103.828164966953",1.3206340835184,103.828164966953
SINGAPORE SPORTS SCHOOL,education,"1.42641140556342,103.789444793951",1.42641140556342,103.789444793951
SOUTH VIEW PRIMARY SCHOOL,education,"1.38143123987698,103.747153671",1.38143123987698,103.747153671
SPECTRA SECONDARY SCHOOL,education,"1.43703750789961,103.804100467487",1.43703750789961,103.804100467487
SPRINGDALE PRIMARY SCHOOL,education,"1.39528544463377,103.889416413501",1.39528544463377,103.889416413501
SPRINGFIELD SECONDARY SCHOOL,education,"1.34957303471476,103.930354460693",1.34957303471476,103.930354460693
ST. ANDREW'S JUNIOR COLLEGE,education,"1.33306515740956,103.863576377056",1.33306515740956,103.863576377056
ST. ANDREW'S JUNIOR SCHOOL,education,"1.33140255308868,103.865117134385",1.33140255308868,103.865117134385
ST. ANDREW'S SECONDARY SCHOOL,education,"1.33069360968075,103.866249138562",1.33069360968075,103.866249138562
ST. ANTHONY'S CANOSSIAN PRIMARY SCHOOL,education,"1.3347253730189,103.941234868202",1.3347253730189,103.941234868202
ST. ANTHONY'S CANOSSIAN SECONDARY SCHOOL,education,"1.33466313498855,103.941977166932",1.33466313498855,103.941977166932
ST. ANTHONY'S PRIMARY SCHOOL,education,"1.36411948475833,103.749251919049",1.36411948475833,103.749251919049
ST. GABRIEL'S PRIMARY SCHOOL,education,"1.34930766795555,103.862309899986",1.34930766795555,103.862309899986
ST. GABRIEL'S SECONDARY SCHOOL,education,"1.34648798732177,103.876094163287",1.34648798732177,103.876094163287
ST. HILDA'S PRIMARY SCHOOL,education,"1.34967978969837,103.937016363397",1.34967978969837,103.937016363397
ST. HILDA'S SECONDARY SCHOOL,education,"1.34973922385379,103.937608032148",1.34973922385379,103.937608032148
ST. JOSEPH'S INSTITUTION,education,"1.32365313490152,103.828498974985",1.32365313490152,103.828498974985
ST. JOSEPH'S INSTITUTION JUNIOR,education,"1.31781476118551,103.845633334522",1.31781476118551,103.845633334522
ST. MARGARET'S SCHOOL (PRIMARY),education,"1.30414407358332,103.845820266438",1.30414407358332,103.845820266438
ST. MARGARET'S SCHOOL (SECONDARY),education,"1.31977464050584,103.809602215402",1.31977464050584,103.809602215402
ST. PATRICK'S SCHOOL,education,"1.30788341871801,103.917638193713",1.30788341871801,103.917638193713
ST. STEPHEN'S SCHOOL,education,"1.31878997295135,103.917258129598",1.31878997295135,103.917258129598
SWISS COTTAGE SECONDARY SCHOOL,education,"1.36471742697475,103.750396136688",1.36471742697475,103.750396136688
TAMPINES MERIDIAN JUNIOR COLLEGE,education,"1.37633346909682,103.936990723441",1.37633346909682,103.936990723441
TAMPINES NORTH PRIMARY SCHOOL,education,"1.36048786025607,103.948768900518",1.36048786025607,103.948768900518
TAMPINES PRIMARY SCHOOL,education,"1.3504863946694,103.943573098509",1.3504863946694,103.943573098509
TAMPINES SECONDARY SCHOOL,education,"1.34926094811197,103.944263709507",1.34926094811197,103.944263709507
TANJONG KATONG GIRLS' SCHOOL,education,"1.3075626184394,103.896107204542",1.3075626184394,103.896107204542
TANJONG KATONG PRIMARY SCHOOL,education,"1.30498489044822,103.899999965407",1.30498489044822,103.899999965407
TANJONG KATONG SECONDARY SCHOOL,education,"1.30873515955341,103.897225196199",1.30873515955341,103.897225196199
TAO NAN SCHOOL,education,"1.30528528687321,103.911553152326",1.30528528687321,103.911553152326
TECK GHEE PRIMARY SCHOOL,education,"1.36565018546903,103.851009800453",1.36565018546903,103.851009800453
TECK WHYE PRIMARY SCHOOL,education,"1.38388660469396,103.753924558586",1.38388660469396,103.753924558586
TELOK KURAU PRIMARY SCHOOL,education,"1.33109611001931,103.911005345855",1.33109611001931,103.911005345855
TEMASEK JUNIOR COLLEGE,education,"1.35728017255861,103.956185936394",1.35728017255861,103.956185936394
TEMASEK PRIMARY SCHOOL,education,"1.31720341663064,103.94575943784",1.31720341663064,103.94575943784
TEMASEK SECONDARY SCHOOL,education,"1.31591673150616,103.947564112022",1.31591673150616,103.947564112022
TOWNSVILLE PRIMARY SCHOOL,education,"1.35994649477568,103.853768994775",1.35994649477568,103.853768994775
UNITY PRIMARY SCHOOL,education,"1.40278303219036,103.746801233973",1.40278303219036,103.746801233973
UNITY SECONDARY SCHOOL,education,"1.40001524119441,103.74602091483",1.40001524119441,103.74602091483
VALOUR PRIMARY SCHOOL,education,"1.40744168163777,103.898762173662",1.40744168163777,103.898762173662
VICTORIA JUNIOR COLLEGE,education,"1.30670174177479,103.919982704149",1.30670174177479,103.919982704149
VICTORIA SCHOOL,education,"1.3087130270751,103.927980966639",1.3087130270751,103.927980966639
WATERWAY PRIMARY SCHOOL,education,"1.39889261226315,103.918585924582",1.39889261226315,103.918585924582
WELLINGTON PRIMARY SCHOOL,education,"1.45168517614776,103.822516208087",1.45168517614776,103.822516208087
WEST GROVE PRIMARY SCHOOL,education,"1.3483403539896,103.698067375909",1.3483403539896,103.698067375909
WEST SPRING PRIMARY SCHOOL,education,"1.38917971808454,103.76639772288",1.38917971808454,103.76639772288
WEST SPRING SECONDARY SCHOOL,education,"1.38782283303782,103.760128840155",1.38782283303782,103.760128840155
WEST VIEW PRIMARY SCHOOL,education,"1.38378546546228,103.760273432258",1.38378546546228,103.760273432258
WESTWOOD PRIMARY SCHOOL,education,"1.3477109654722,103.700467520791",1.3477109654722,103.700467520791
WESTWOOD SECONDARY SCHOOL,education,"1.35373698510994,103.701772102139",1.35373698510994,103.701772102139
WHITE SANDS PRIMARY SCHOOL,education,"1.36877568746945,103.956300375904",1.36877568746945,103.956300375904
WHITLEY SECONDARY SCHOOL,education,"1.35505208480649,103.842552378136",1.35505208480649,103.842552378136
WOODGROVE PRIMARY SCHOOL,education,"1.43273620725049,103.79023031392",1.43273620725049,103.79023031392
WOODGROVE SECONDARY SCHOOL,education,"1.42831828137013,103.79604758539",1.42831828137013,103.79604758539
WOODLANDS PRIMARY SCHOOL,education,"1.43658270720199,103.791791282236",1.43658270720199,103.791791282236
WOODLANDS RING PRIMARY SCHOOL,education,"1.43485179380236,103.79741434351",1.43485179380236,103.79741434351
WOODLANDS RING SECONDARY SCHOOL,education,"1.43070452883799,103.777625748539",1.43070452883799,103.777625748539
WOODLANDS SECONDARY SCHOOL,education,"1.43912528141356,103.774586410437",1.43912528141356,103.774586410437
XINGHUA PRIMARY SCHOOL,education,"1.35799653782463,103.890216355459",1.35799653782463,103.890216355459
XINGNAN PRIMARY SCHOOL,education,"1.34270639669225,103.687588478681",1.34270639669225,103.687588478681
XINMIN PRIMARY SCHOOL,education,"1.37176798317468,103.88280991785",1.37176798317468,103.88280991785
XINMIN SECONDARY SCHOOL,education,"1.37255884700002,103.88305161385",1.37255884700002,103.88305161385
XISHAN PRIMARY SCHOOL,education,"1.43347186925064,103.837755319448",1.43347186925064,103.837755319448
YANGZHENG PRIMARY SCHOOL,education,"1.3489768083841,103.868467129954",1.3489768083841,103.868467129954
YEW TEE PRIMARY SCHOOL,education,"1.39672603497195,103.751817992962",1.39672603497195,103.751817992962
YIO CHU KANG PRIMARY SCHOOL,education,"1.37793264345276,103.885643682171",1.37793264345276,103.885643682171
YIO CHU KANG SECONDARY SCHOOL,education,"1.37797597740925,103.84213696352",1.37797597740925,103.84213696352
YISHUN INNOVA JUNIOR COLLEGE,education,"1.42426692572335,103.83003171149",1.42426692572335,103.83003171149
YISHUN PRIMARY SCHOOL,education,"1.43397617334964,103.834050796658",1.43397617334964,103.834050796658
YISHUN SECONDARY SCHOOL,education,"1.42813324276086,103.828764316679",1.42813324276086,103.828764316679
YISHUN TOWN SECONDARY SCHOOL,education,"1.43232156717386,103.838094226361",1.43232156717386,103.838094226361
YU NENG PRIMARY SCHOOL,education,"1.33398037894072,103.932015036296",1.33398037894072,103.932015036296
YUAN CHING SECONDARY SCHOOL,education,"1.34200635764467,103.72089870437",1.34200635764467,103.72089870437
YUHUA PRIMARY SCHOOL,education,"1.34291981622016,103.740861148879",1.34291981622016,103.740861148879
YUHUA SECONDARY SCHOOL,education,"1.34718626876968,103.722687235839",1.34718626876968,103.722687235839
YUMIN PRIMARY SCHOOL,education,"1.35131569890862,103.950551091373",1.35131569890862,103.950551091373
YUSOF ISHAK SECONDARY SCHOOL,education,"1.34235172835604,103.760159353985",1.34235172835604,103.760159353985
YUYING SECONDARY SCHOOL,education,"1.35713595302467,103.890194755287",1.35713595302467,103.890194755287
ZHANGDE PRIMARY SCHOOL,education,"1.28421153855474,103.825951884637",1.28421153855474,103.825951884637
ZHENGHUA PRIMARY SCHOOL,education,"1.37942873617052,103.76970317201",1.37942873617052,103.76970317201
ZHENGHUA SECONDARY SCHOOL,education,"1.38512867383046,103.760410617887",1.38512867383046,103.760410617887
ZHONGHUA PRIMARY SCHOOL,education,"1.36026072476019,103.869712517383",1.36026072476019,103.869712517383
ZHONGHUA SECONDARY SCHOOL,education,"1.34840720846208,103.869430481414",1.34840720846208,103.869430481414
